[
    {
        "address": " Rua Pascal, 181 ",
        "price1": " R$ 3.990.000,00 ",
        "price2": "",
        "classification": "Apartamento | 542,67m²",
        "link": "https://www.zukerman.com.br/apartamento-brooklin-novo-sao-paulo-sp-17572-137636",
        "latitude": "-23.6157836",
        "longitude": "-46.6778546",
        "zipcode": "\"04616-001\""
    },
    {
        "address": " Rua Clamecy, 220 ",
        "price1": " R$ 369.600,00 ",
        "price2": "",
        "classification": "Casa",
        "link": "javascript:link_externo(17859,138984);",
        "latitude": "-23.7067057",
        "longitude": "-46.7879599"
    },
    {
        "address": " Rua Ribeiro Lisboa, 165 ",
        "price1": " R$ 2.276.022,69 ",
        "price2": " R$ 1.138.011,34 ",
        "classification": "Casa | 1.200,00m2",
        "link": "https://www.zukerman.com.br/casa-fazenda-morumbi-sao-paulo-sp-17625-137821",
        "latitude": "-23.6184266",
        "longitude": "-46.7146569",
        "zipcode": "\"05657-020\""
    },
    {
        "address": " Rua da Constituinte, 57 ",
        "price1": " R$ 1.297.115,32 ",
        "price2": " R$ 648.233,37 ",
        "classification": "Apartamento | 142,71m²",
        "link": "https://www.zukerman.com.br/apartamento-ipiranga-sao-paulo-sp-17304-136079",
        "latitude": "-23.5822333",
        "longitude": "-46.6077167",
        "zipcode": "\"04204-030\""
    },
    {
        "address": " Rua Tapes, 301 ",
        "price1": " R$ 912.574,29 ",
        "price2": " R$ 821.316,86 ",
        "classification": "Casa | 225,00m2",
        "link": "https://www.zukerman.com.br/casa-ibirapuera-sao-paulo-sp-17788-138752",
        "latitude": "-23.6311364",
        "longitude": "-46.6655392",
        "zipcode": "\"04631-010\""
    },
    {
        "address": " Rua José Eid Maluf, 112, 114, 116 e 118 ",
        "price1": " R$ 142.800,00 ",
        "price2": "",
        "classification": "Casa",
        "link": "https://www.zukerman.com.br/casa-americanopolis-sao-paulo-sp-17875-139052",
        "latitude": "-23.6721816",
        "longitude": "-46.6574347",
        "zipcode": "\"04405-140\""
    },
    {
        "address": " Rua Flórida , 1758 ",
        "price1": " R$ 1.053.047,33 ",
        "price2": " R$ 631.828,40 ",
        "classification": "Conjunto Comercial | 313,16m²",
        "link": "https://www.zukerman.com.br/conjunto-comercial-cidade-moncoes-sao-paulo-sp-17770-138717",
        "latitude": "-23.6072711",
        "longitude": "-46.69494520000001",
        "zipcode": "\"04565-001\""
    },
    {
        "address": " Rua Vapabussu, 66 ",
        "price1": " R$ 923.732,08 ",
        "price2": " R$ 1.312.503,98 ",
        "classification": "Apartamento | 73,50m²",
        "link": "https://www.zukerman.com.br/apartamento-campo-belo-sao-paulo-sp-17861-139022",
        "latitude": "-23.6313155",
        "longitude": "-46.66838389999999",
        "zipcode": "\"04632-010\""
    },
    {
        "address": " Rua José dos Santos Júnior, 319 ",
        "price1": " R$ 1.548.646,53 ",
        "price2": " R$ 774.323,26 ",
        "classification": "Casa | 300,00m2",
        "link": "https://www.zukerman.com.br/casa-campo-belo-sao-paulo-sp-17337-136183",
        "latitude": "-23.6233366",
        "longitude": "-46.6798128",
        "zipcode": "\"04609-010\""
    },
    {
        "address": " Rua Castro Alves, 488 ",
        "price1": " R$ 3.200.204,00 ",
        "price2": " R$ 1.920.122,40 ",
        "classification": "Apartamento | 342,29m²",
        "link": "https://www.zukerman.com.br/apartamento-aclimacao--sao-paulo-sp-17798-138768",
        "latitude": "-23.569265",
        "longitude": "-46.636359",
        "zipcode": "\"08346-375\""
    },
    {
        "address": " Rua Joaquim Nabuco, 835 ",
        "price1": " R$ 1.700.000,00 ",
        "price2": "",
        "classification": "Casa | 1.200,00m2",
        "link": "https://www.zukerman.com.br/casa-brooklin-paulista-sao-paulo-sp-16760-133736",
        "latitude": "-23.6280742",
        "longitude": "-46.6785454",
        "zipcode": "\"04621-003\""
    },
    {
        "address": " Avenida Santo Amaro, 4327 ",
        "price1": " R$ 743.700,00 ",
        "price2": "",
        "classification": "Sala",
        "link": "https://www.zukerman.com.br/sala-brooklin-paulista-sao-paulo-sp-17858-138886",
        "latitude": "-23.6211809",
        "longitude": "-46.6837618",
        "zipcode": "\"04556-300\""
    },
    {
        "address": " Avenida dos Eucaliptos, 113 ",
        "price1": " R$ 1.352.295,09 ",
        "price2": " R$ 811.377,06 ",
        "classification": "Apartamento | 111,66m²",
        "link": "https://www.zukerman.com.br/apartamento-indianopolis-sao-paulo-sp-17690-138141",
        "latitude": "-23.6053873",
        "longitude": "-46.6743748",
        "zipcode": "\"04517-050\""
    },
    {
        "address": " Rua Ponte Delgada, 76 ",
        "price1": " R$ 396.161,77 ",
        "price2": " R$ 198.080,89 ",
        "classification": "Apartamento | 69,38m²",
        "link": "https://www.zukerman.com.br/apartamento-jardim-paulista-sao-paulo-sp-17725-138361",
        "latitude": "-23.5995285",
        "longitude": "-46.6840965",
        "zipcode": "\"04548-020\""
    },
    {
        "address": " Rua Pensilvânia, 360 ",
        "price1": " R$ 771.672,01 ",
        "price2": " R$ 385.836,01 ",
        "classification": "Apartamento | 82,23m²",
        "link": "https://www.zukerman.com.br/apartamento-cidade-moncoes-sao-paulo-sp-17446-136519",
        "latitude": "-23.6142412",
        "longitude": "-46.6831513",
        "zipcode": "\"04564-000\""
    },
    {
        "address": " Rua Cristóvão Pereira, 1170 ",
        "price1": " R$ 946.259,21 ",
        "price2": " R$ 756.628,86 ",
        "classification": "Sobrado | 152,50m2",
        "link": "https://www.zukerman.com.br/sobrado-campo-belo-sao-paulo-sp-17277-136013",
        "latitude": "-23.6283755",
        "longitude": "-46.67172360000001",
        "zipcode": "\"04620-011\""
    },
    {
        "address": " Avenida Jacutinga, 647 ",
        "price1": " R$ 1.987.016,98 ",
        "price2": " R$ 1.192.210,19 ",
        "classification": "Apartamento | 199,19m²",
        "link": "https://www.zukerman.com.br/apartamento-indianopolis-sao-paulo-sp-17775-138724",
        "latitude": "-23.6038564",
        "longitude": "-46.66448889999999",
        "zipcode": "\"04515-030\""
    },
    {
        "address": " Rua Professor João Batista de Castro, 196 ",
        "price1": " R$ 808.263,89 ",
        "price2": " R$ 404.131,94 ",
        "classification": "Casa | 146,00m2",
        "link": "https://www.zukerman.com.br/casa-brooklin-paulista-sao-paulo-sp-17581-137660",
        "latitude": "-23.6412544",
        "longitude": "-46.6737018",
        "zipcode": "\"04623-150\""
    },
    {
        "address": " Rua Flávio Nobre de Campos, 166 ",
        "price1": " R$ 259.100,00 ",
        "price2": "",
        "classification": "Casa",
        "link": "https://www.zukerman.com.br/casa-capao-redondo-sao-paulo-sp-17875-139055",
        "latitude": "-23.6622631",
        "longitude": "-46.7628884",
        "zipcode": "\"05854-120\""
    },
    {
        "address": " Rua Pradópolis, 57 ",
        "price1": " R$ 224.021,23 ",
        "price2": " R$ 156.814,86 ",
        "classification": "Casa | 70,00m2",
        "link": "https://www.zukerman.com.br/casa-conjunto-habitacional-brigadeiro-faria-lima-sao-paulo-sp-17646-137846",
        "latitude": "-23.753418",
        "longitude": "-46.6821841",
        "zipcode": "\"04840-820\""
    },
    {
        "address": " Rua Doutor Queirós Guimarães, 167 ",
        "price1": " R$ 3.030.138,10 ",
        "price2": " R$ 1.818.082,86 ",
        "classification": "Casa | 953,00m2",
        "link": "https://www.zukerman.com.br/casa-jardim-guedala-sao-paulo-sp-17536-137513",
        "latitude": "-23.5823597",
        "longitude": "-46.7106559",
        "zipcode": "\"05609-000\""
    },
    {
        "address": " Rua Professor Eduardo Monteiro, 100 ",
        "price1": " R$ 3.185.885,22 ",
        "price2": " R$ 1.592.942,61 ",
        "classification": "Casa | 760,00m2",
        "link": "https://www.zukerman.com.br/casa-jardim-leonor-sao-paulo-sp-17774-138723",
        "latitude": "-23.5936105",
        "longitude": "-46.7119874",
        "zipcode": "\"05614-120\""
    },
    {
        "address": " Rua Dankmar Adler, 177 ",
        "price1": " R$ 899.000,00 ",
        "price2": "",
        "classification": "Apartamento Duplex | 172,23m²",
        "link": "https://www.zukerman.com.br/apartamento-duplex-morumbi-sao-paulo-sp-17009-134368",
        "latitude": "-23.6194826",
        "longitude": "-46.7382161",
        "zipcode": "\"05641-110\""
    },
    {
        "address": " Estrada das Lágrimas, 3223 ",
        "price1": " R$ 151.000,00 ",
        "price2": "",
        "classification": "Apartamento | 53,46m²",
        "link": "https://www.zukerman.com.br/apartamento-jardim-noemia-sao-paulo-sp-17732-138395",
        "latitude": "-23.6291288",
        "longitude": "-46.589732",
        "zipcode": "\"09581-680\""
    },
    {
        "address": " Rua José Carlos de Toledo Piza, 175 ",
        "price1": " R$ 226.746,45 ",
        "price2": " R$ 136.047,87 ",
        "classification": "Apartamento | 63,72m²",
        "link": "https://www.zukerman.com.br/apartamento-jardim-parque-morumbi-sao-paulo-sp-17723-138358",
        "latitude": "-23.6217514",
        "longitude": "-46.7311907",
        "zipcode": "\"05712-070\""
    },
    {
        "address": " Avenida Padre Arlindo Vieira, 1217 ",
        "price1": " R$ 277.731,78 ",
        "price2": " R$ 166.639,07 ",
        "classification": "Apartamento | 50,16m²",
        "link": "https://www.zukerman.com.br/apartamento-jardim-vergueiro-sao-paulo-sp-17801-138771",
        "latitude": "-23.6313984",
        "longitude": "-46.60444220000001",
        "zipcode": "\"04165-160\""
    },
    {
        "address": " Rua Carlos Pedrell, 207 ",
        "price1": " R$ 255.100,00 ",
        "price2": "",
        "classification": "Casa",
        "link": "javascript:link_externo(17859,138981);",
        "latitude": "-23.5924519",
        "longitude": "-46.7980689",
        "zipcode": "\"05571-050\""
    },
    {
        "address": " Rua Batataes, 558 ",
        "price1": " R$ 350.770,41 ",
        "price2": " R$ 175.385,20 ",
        "classification": "Apartamento | 40,78m²",
        "link": "https://www.zukerman.com.br/apartamento-jardim-paulista-sao-paulo-sp-17599-137698",
        "latitude": "-23.5691919",
        "longitude": "-46.65799",
        "zipcode": "\"01423-010\""
    },
    {
        "address": " Rua Coronel Diogo, 1429 ",
        "price1": " R$ 504.264,08 ",
        "price2": " R$ 252.132,04 ",
        "classification": "Apartamento | 100,00m²",
        "link": "https://www.zukerman.com.br/apartamento-jardim-gloria-sao-paulo-sp-17818-138794",
        "latitude": "-23.5812846",
        "longitude": "-46.6149796",
        "zipcode": "\"01545-001\""
    },
    {
        "address": " Avenida Roberto Lorenz, 822 ",
        "price1": " R$ 3.600.000,00 ",
        "price2": "",
        "classification": "Casa | 1.686,00m2",
        "link": "https://www.zukerman.com.br/casa-jardim-guedala-sao-paulo-sp-17404-136449",
        "latitude": "-23.5892455",
        "longitude": "-46.7102118",
        "zipcode": "\"05611-050\""
    },
    {
        "address": " Rua Nossa Senhora da Saúde, 1330 ",
        "price1": " R$ 271.266,60 ",
        "price2": "",
        "classification": "Apartamento",
        "link": "https://www.zukerman.com.br/apartamento-jardim-previdencia-sao-paulo-sp-17743-138424",
        "latitude": "-23.62239",
        "longitude": "-46.6070175",
        "zipcode": "\"04159-001\""
    },
    {
        "address": " Avenida Doutor Guilherme Dumont Villares, 601 ",
        "price1": " R$ 389.994,55 ",
        "price2": "",
        "classification": "Apartamento",
        "link": "https://www.zukerman.com.br/apartamento-jardim-londrina-sao-paulo-sp-17743-138429",
        "latitude": "-23.608167",
        "longitude": "-46.744224",
        "zipcode": "\"05640-001\""
    },
    {
        "address": " Rua José Carlos de Toledo Piza, 101 ",
        "price1": " R$ 879.722,89 ",
        "price2": " R$ 527.833,73 ",
        "classification": "Apartamento | 195,55m²",
        "link": "https://www.zukerman.com.br/apartamento-jardim-parque-morumbi-sao-paulo-sp-17612-137746",
        "latitude": "-23.6210654",
        "longitude": "-46.7306186",
        "zipcode": "\"05712-070\""
    },
    {
        "address": " Rua Marino Pinto, 78 ",
        "price1": " R$ 247.770,05 ",
        "price2": "",
        "classification": "Casa",
        "link": "https://www.zukerman.com.br/casa-jardim-palmares-sao-paulo-sp-17743-138437",
        "latitude": "-23.6893358",
        "longitude": "-46.6783587",
        "zipcode": "\"04457-090\""
    },
    {
        "address": " Rua Dankmar Adler, 177 ",
        "price1": " R$ 989.000,00 ",
        "price2": "",
        "classification": "Apartamento | 208,05m²",
        "link": "https://www.zukerman.com.br/apartamento-morumbi-sao-paulo-sp-17009-134369",
        "latitude": "-23.6194826",
        "longitude": "-46.7382161",
        "zipcode": "\"05641-110\""
    },
    {
        "address": " Rua Zike Tuma, 576 ",
        "price1": " R$ 241.500,00 ",
        "price2": "",
        "classification": "Casa",
        "link": "https://www.zukerman.com.br/casa-jardim-ubirajara-sao-paulo-sp-17875-139066",
        "latitude": "-23.6898551",
        "longitude": "-46.67280539999999",
        "zipcode": "\"04457-130\""
    },
    {
        "address": " Rua Zike Tuma, 142 ",
        "price1": " R$ 423.457,65 ",
        "price2": " R$ 211.728,83 ",
        "classification": "Apartamento | 67,43m²",
        "link": "https://www.zukerman.com.br/apartamento-jardim-ubirajara-sao-paulo-sp-17784-138735",
        "latitude": "-23.6911558",
        "longitude": "-46.675931",
        "zipcode": "\"04458-000\""
    },
    {
        "address": " Rua Acutiranha, 340 ",
        "price1": " R$ 1.980.000,00 ",
        "price2": "",
        "classification": "Casa | 575,00m2",
        "link": "https://www.zukerman.com.br/casa-jardim-panorama-sao-paulo-sp-17558-137584",
        "latitude": "-23.6022258",
        "longitude": "-46.7032117",
        "zipcode": "\"04533-085\""
    },
    {
        "address": " Rua Engenheiro Janot Pacheco, 110 ",
        "price1": " R$ 1.550.000,00 ",
        "price2": "",
        "classification": "Casa | 530,00m2",
        "link": "https://www.zukerman.com.br/casa-jardim-guedala-sao-paulo-sp-15838-130081",
        "latitude": "-23.5940044",
        "longitude": "-46.7170135",
        "zipcode": "\"05617-100\""
    },
    {
        "address": " Rua Comendador Júlio Pereira Lopes, 210 ",
        "price1": " R$ 1.525.100,00 ",
        "price2": "",
        "classification": "Casa",
        "link": "https://www.zukerman.com.br/casa-jardim-da-gloria-sao-paulo-sp-17875-139042",
        "latitude": "-23.5869553",
        "longitude": "-46.6216508",
        "zipcode": "\"04114-120\""
    },
    {
        "address": " Rua Chapada de Minas, 210 ",
        "price1": " R$ 288.000,00 ",
        "price2": "",
        "classification": "Apartamento",
        "link": "https://www.zukerman.com.br/apartamento-parque-reboucas-sao-paulo-sp-17875-139064",
        "latitude": "-23.6274147",
        "longitude": "-46.7454307",
        "zipcode": "\"05734\""
    },
    {
        "address": " Rua Pasquale Gallupi, 427 ",
        "price1": " R$ 125.756,40<span class=\"sqla\"> | 1 lance</span> ",
        "price2": "",
        "classification": "Apartamento",
        "link": "https://www.zukerman.com.br/apartamento-paraisopolis-sao-paulo-sp-17743-138427",
        "latitude": "-23.6111488",
        "longitude": "-46.725823",
        "zipcode": "\"05660-000\""
    },
    {
        "address": " Rua Rafael Carrozzo, 100 ",
        "price1": " R$ 784.661,69 ",
        "price2": " R$ 470.561,61 ",
        "classification": "Apartamento | 145,45m²",
        "link": "https://www.zukerman.com.br/apartamento-paraiso-do-morumbi-sao-paulo-sp-17342-136189",
        "latitude": "-23.6253738",
        "longitude": "-46.7217669",
        "zipcode": "\"05705-260\""
    },
    {
        "address": " Rua Desembargador Amorim Lima, 148 ",
        "price1": " R$ 7.629.247,99 ",
        "price2": " R$ 5.337.803,29 ",
        "classification": "Apartamento | 585,30m²",
        "link": "https://www.zukerman.com.br/apartamento-morumbi-sao-paulo-sp-17322-136097",
        "latitude": "-23.5893573",
        "longitude": "-46.7146609",
        "zipcode": "\"05613-030\""
    },
    {
        "address": " Avenida Giovanni Gronchi, 3975 ",
        "price1": " R$ 390.000,00 ",
        "price2": "",
        "classification": "Apartamento | 285,97m²",
        "link": "https://www.zukerman.com.br/apartamento-vila-andrade-sao-paulo-sp-17235-135947",
        "latitude": "-23.6145232",
        "longitude": "-46.7312046",
        "zipcode": "\"05724-001\""
    },
    {
        "address": " Rua Francisco Pessoa, 181 ",
        "price1": " R$ 559.401,95 ",
        "price2": " R$ 279.700,98 ",
        "classification": "Apartamento | 130,20m²",
        "link": "https://www.zukerman.com.br/apartamento-vila-andrade-sao-paulo-sp-17627-137823",
        "latitude": "-23.6277554",
        "longitude": "-46.7378837",
        "zipcode": "\"05727-240\""
    },
    {
        "address": " Rua Biobedas, 49 ",
        "price1": " R$ 1.097.737,29 ",
        "price2": " R$ 539.511,41 ",
        "classification": "Apartamento | 76,91m²",
        "link": "https://www.zukerman.com.br/apartamento-parque-imperial-sao-paulo-sp-17744-138693",
        "latitude": "-23.6210941",
        "longitude": "-46.6365349",
        "zipcode": "\"04302-010\""
    },
    {
        "address": " Rua Charles Spencer Chaplin, 204 ",
        "price1": " R$ 300.168,55 ",
        "price2": "",
        "classification": "Apartamento",
        "link": "https://www.zukerman.com.br/apartamento-vila-andrade-sao-paulo-sp-17743-138441",
        "latitude": "-23.6228339",
        "longitude": "-46.7368685",
        "zipcode": "\"05642-011\""
    },
    {
        "address": " Rua Mattia Filizzola, 127 ",
        "price1": " R$ 2.500.000,00 ",
        "price2": "",
        "classification": "Apartamento Duplex | 881,31m²",
        "link": "https://www.zukerman.com.br/apartamento-duplex-real-parque-sao-paulo-sp-16743-133639",
        "latitude": "-23.6075508",
        "longitude": "-46.7044287",
        "zipcode": "\"05685-060\""
    },
    {
        "address": " Avenida Giovanni Gronchi, 5021 ",
        "price1": " R$ 600.000,00 ",
        "price2": "",
        "classification": "Apartamento Duplex | 408,89m²",
        "link": "https://www.zukerman.com.br/apartamento-duplex-morumbi-sao-paulo-sp-17437-136497",
        "latitude": "-23.6234205",
        "longitude": "-46.7337846",
        "zipcode": "\"05724-003\""
    },
    {
        "address": " Rua Carvalho de Freitas, 255 ",
        "price1": " R$ 542.000,00 ",
        "price2": "",
        "classification": "Apartamento",
        "link": "javascript:link_externo(17859,139004);",
        "latitude": "-23.6307565",
        "longitude": "-46.7399233",
        "zipcode": "\"05728-030\""
    },
    {
        "address": " Rua Doutor Tomás Carvalhal, 826 ",
        "price1": " R$ 1.578.918,13 ",
        "price2": " R$ 789.459,06 ",
        "classification": "Apartamento | 131,82m²",
        "link": "https://www.zukerman.com.br/apartamento-paraiso-sao-paulo-sp-17768-138715",
        "latitude": "-23.5783014",
        "longitude": "-46.649018",
        "zipcode": "\"04006\""
    },
    {
        "address": " Rua Charles Spencer Chaplin, 199 ",
        "price1": " R$ 1.440.000,00 ",
        "price2": "",
        "classification": "Apartamento Duplex | 398,68m²",
        "link": "https://www.zukerman.com.br/apartamento-duplex-vila-andrade-sao-paulo-sp-17571-137632",
        "latitude": "-23.6237596",
        "longitude": "-46.7360964",
        "zipcode": "\"05642-030\""
    },
    {
        "address": " Rua Maria Nader Calfat, 270 ",
        "price1": " R$ 133.000,00 ",
        "price2": "",
        "classification": "Apartamento",
        "link": "javascript:link_externo(17859,138991);",
        "latitude": "-23.6285584",
        "longitude": "-46.72964229999999",
        "zipcode": "\"05713-520\""
    },
    {
        "address": " Avenida Vereador José Diniz, 1.074 ",
        "price1": " R$ 952.779,10 ",
        "price2": " R$ 476.389,55 ",
        "classification": "Casa | 229,50m2",
        "link": "https://www.zukerman.com.br/casa-santo-amaro-sao-paulo-sp-17337-136182",
        "latitude": "-23.6273237",
        "longitude": "-46.6844537"
    },
    {
        "address": " Avenida São Paulo Antigo, 801 ",
        "price1": " R$ 3.100.000,00 ",
        "price2": "",
        "classification": "Apartamento | 405,80m²",
        "link": "https://www.zukerman.com.br/apartamento-real-parque-sao-paulo-sp-16870-134125",
        "latitude": "-23.605148",
        "longitude": "-46.705306",
        "zipcode": "\"05684-011\""
    },
    {
        "address": " Rua Visconde de Nacar, 163 ",
        "price1": " R$ 1.043.562,00 ",
        "price2": "",
        "classification": "Apartamento",
        "link": "https://www.zukerman.com.br/apartamento-real-parque-sao-paulo-sp-17743-138420",
        "latitude": "-23.6080502",
        "longitude": "-46.7066009",
        "zipcode": "\"05685-010\""
    },
    {
        "address": " Rua Dom Paulo Pedrosa, 1282 ",
        "price1": " R$ 1.350.000,00 ",
        "price2": "",
        "classification": "Apartamento Duplex | 492,95m²",
        "link": "https://www.zukerman.com.br/apartamento-duplex-real-parque-sao-paulo-sp-16285-132062",
        "latitude": "-23.6126151",
        "longitude": "-46.7049138",
        "zipcode": "\"05687-002\""
    },
    {
        "address": " Rua Alexandre Benois, 180 ",
        "price1": " R$ 1.131.006,98 ",
        "price2": " R$ 565.220,73 ",
        "classification": "Apartamento | 254,70m²",
        "link": "https://www.zukerman.com.br/apartamento-vila-andrade-sao-paulo-sp-17309-136084",
        "latitude": "-23.6364971",
        "longitude": "-46.7378806",
        "zipcode": "\"05729-090\""
    },
    {
        "address": " Avenida Adolfo Pinheiro, 1.850 ",
        "price1": " R$ 506.679,61 ",
        "price2": " R$ 253.339,81 ",
        "classification": "Apartamento | 99,33m²",
        "link": "https://www.zukerman.com.br/apartamento-santo-amaro-sao-paulo-sp-17676-137906",
        "latitude": "-23.6501102",
        "longitude": "-46.7041714",
        "zipcode": "\"04753-060\""
    },
    {
        "address": " Avenida Doutor Altino Arantes, 669 ",
        "price1": " R$ 667.209,61 ",
        "price2": " R$ 333.604,80 ",
        "classification": "Apartamento | 84,38m²",
        "link": "https://www.zukerman.com.br/apartamento-vila-clementino-sao-paulo-sp-17672-137902",
        "latitude": "-23.6028137",
        "longitude": "-46.643332",
        "zipcode": "\"04042-033\""
    },
    {
        "address": " Avenida Doutor Altino Arantes, 574 ",
        "price1": " R$ 442.795,70 ",
        "price2": " R$ 265.677,42 ",
        "classification": "Apartamento | 61,41m²",
        "link": "https://www.zukerman.com.br/apartamento-vila-clementino-sao-paulo-sp-17649-137849",
        "latitude": "-23.6026303",
        "longitude": "-46.6425754",
        "zipcode": "\"04042-033\""
    },
    {
        "address": " Rua Itatiaia, 2 e 2 Fundos ",
        "price1": " R$ 462.365,71 ",
        "price2": " R$ 277.419,43 ",
        "classification": "Galpão | 311,88m2",
        "link": "https://www.zukerman.com.br/galpao-vila-guarani--sao-paulo-sp-17824-138830",
        "latitude": "-23.6320583",
        "longitude": "-46.6412511",
        "zipcode": "\"04310-010\""
    },
    {
        "address": " Avenida Ramalho Ortigão, 70 ",
        "price1": " R$ 818.734,30 ",
        "price2": " R$ 491.240,58 ",
        "classification": "Apartamento | 94,74m²",
        "link": "https://www.zukerman.com.br/apartamento-vila-gumercindo-sao-paulo-sp-17655-137867",
        "latitude": "-23.604975",
        "longitude": "-46.6224042",
        "zipcode": "\"04130-010\""
    },
    {
        "address": " Rua Jovina, 344 ",
        "price1": " R$ 428.500,00 ",
        "price2": "",
        "classification": "Apartamento | 104,05m²",
        "link": "https://www.zukerman.com.br/apartamento-vila-mascote-sao-paulo-sp-17544-138314",
        "latitude": "-23.6479587",
        "longitude": "-46.664761",
        "zipcode": "\"04363-080\""
    },
    {
        "address": " Rua Simão da Matta, 552 ",
        "price1": " R$ 427.209,80 ",
        "price2": " R$ 256.325,88 ",
        "classification": "Terreno | 221,00m2",
        "link": "https://www.zukerman.com.br/terreno-vila-guarani--sao-paulo-sp-17824-138829",
        "latitude": "-23.6350836",
        "longitude": "-46.6319503",
        "zipcode": "\"04314-000\""
    },
    {
        "address": " Rua Pero Peres, 144 e 146 ",
        "price1": " R$ 282.500,00 ",
        "price2": "",
        "classification": "Casa | 245,50m2",
        "link": "https://www.zukerman.com.br/casa-vila-cruzeiro-sao-paulo-sp-17544-138324",
        "latitude": "-23.5464968",
        "longitude": "-46.40569410000001",
        "zipcode": "\"08460-020\""
    },
    {
        "address": " Rua Ernesto de Oliveira, 189 ",
        "price1": " R$ 790.000,00 ",
        "price2": "",
        "classification": "Apartamento | 133,88m²",
        "link": "https://www.zukerman.com.br/apartamento-vila-mariana-sao-paulo-sp-17772-138721",
        "latitude": "-23.5923505",
        "longitude": "-46.62531",
        "zipcode": "\"04116-170\""
    },
    {
        "address": " Rua Ari Cajado, 207 ",
        "price1": " R$ 501.651,47 ",
        "price2": " R$ 250.825,73 ",
        "classification": "Casa | 84,56m2",
        "link": "https://www.zukerman.com.br/casa-vila-monumento-sao-paulo-sp-17628-137824",
        "latitude": "-23.5724931",
        "longitude": "-46.6144894",
        "zipcode": "\"01551-080\""
    },
    {
        "address": " Rua Antônio José Vaz, 177 ",
        "price1": " R$ 409.415,13 ",
        "price2": " R$ 204.707,57 ",
        "classification": "Apartamento | 77,49m²",
        "link": "https://www.zukerman.com.br/apartamento-vila-caraguata-sao-paulo-sp-17548-137534",
        "latitude": "-23.6456417",
        "longitude": "-46.6045487",
        "zipcode": "\"04191-190\""
    },
    {
        "address": " Rua Chibata, 61 ",
        "price1": " R$ 165.500,00 ",
        "price2": "",
        "classification": "Apartamento",
        "link": "https://www.zukerman.com.br/apartamento-vila-andrade-sao-paulo-sp-17875-139050",
        "latitude": "-23.6262144",
        "longitude": "-46.7435996",
        "zipcode": "\"05734-100\""
    },
    {
        "address": " Avenida Marginal Esquerda Anchieta, 3.609 ",
        "price1": " R$ 308.095,02 ",
        "price2": " R$ 154.047,51 ",
        "classification": "Apartamento | 61,77m²",
        "link": "https://www.zukerman.com.br/apartamento-vila-arapua-sao-paulo-sp-17568-137629",
        "latitude": "-23.6585728",
        "longitude": "-46.5760258"
    },
    {
        "address": " Rua Dom Antônio de Alvarenga, 88 ",
        "price1": " R$ 845.032,51 ",
        "price2": " R$ 507.019,51 ",
        "classification": "Casas | 280,00m2",
        "link": "https://www.zukerman.com.br/casas-vila-gumercindo-sao-paulo-sp-17866-139030",
        "latitude": "-23.6004897",
        "longitude": "-46.6233809",
        "zipcode": "\"04129-030\""
    },
    {
        "address": " Avenida Santo Amaro, 2.182 ",
        "price1": " R$ 852.595,88 ",
        "price2": " R$ 426.297,94 ",
        "classification": "Apartamento | 127,95m²",
        "link": "https://www.zukerman.com.br/apartamento-vila-nova-conceicao-sao-paulo-sp-17871-139035",
        "latitude": "-23.596319",
        "longitude": "-46.67322799999999",
        "zipcode": "\"04505-002\""
    },
    {
        "address": " Rua Santa, 71 ",
        "price1": " R$ 538.790,76 ",
        "price2": " R$ 323.274,45 ",
        "classification": "Apartamento | 95,32m²",
        "link": "https://www.zukerman.com.br/apartamento-vila-mascote-sao-paulo-sp-17731-138367",
        "latitude": "-23.6474567",
        "longitude": "-46.6657933",
        "zipcode": "\"04363-070\""
    },
    {
        "address": " Rua Doutor Andrade Pertence, 91 ",
        "price1": " R$ 1.200.000,00 ",
        "price2": "",
        "classification": "Residencial / Comercial | 140,00m2",
        "link": "https://www.zukerman.com.br/residencial-comercial-vila-olimpia-sao-paulo-sp-17571-137634",
        "latitude": "-23.6044043",
        "longitude": "-46.6759545",
        "zipcode": "\"04549-020\""
    },
    {
        "address": " Rua Maria Bucalem Haddad, 148 ",
        "price1": " R$ 417.374,02 ",
        "price2": " R$ 208.687,01 ",
        "classification": "Apartamento | 79,96m²",
        "link": "https://www.zukerman.com.br/apartamento-vila-firmiano-pinto-sao-paulo-sp-17656-137868",
        "latitude": "-23.6007082",
        "longitude": "-46.620409",
        "zipcode": "\"04125-010\""
    },
    {
        "address": " Rua João Álvares Correia, 55 ",
        "price1": " R$ 573.352,94 ",
        "price2": " R$ 286.676,47 ",
        "classification": "Apartamento | 47,43m²",
        "link": "https://www.zukerman.com.br/apartamento-vila-mariana-sao-paulo-sp-17686-137942",
        "latitude": "-23.592063",
        "longitude": "-46.62220560000001",
        "zipcode": "\"04115-030\""
    },
    {
        "address": " Rua Palacete das Águias, 656 ",
        "price1": " R$ 399.000,00 ",
        "price2": "",
        "classification": "Apartamento | 73,97m²",
        "link": "https://www.zukerman.com.br/apartamento-vila-mascote-sao-paulo-sp-17009-134370",
        "latitude": "-23.6424986",
        "longitude": "-46.6679737",
        "zipcode": "\"04635-022\""
    },
    {
        "address": " Rua Ministro Oscar Saraiva, 63 ",
        "price1": " R$ 362.925,05 ",
        "price2": "",
        "classification": "Casa",
        "link": "https://www.zukerman.com.br/casa-vila-brasilio-machado-sao-paulo-sp-17743-138445",
        "latitude": "-23.6102228",
        "longitude": "-46.616191",
        "zipcode": "\"04289-030\""
    },
    {
        "address": " Rua Samia Haddad, 111 ",
        "price1": " R$ 828.058,81 ",
        "price2": " R$ 435.467,72 ",
        "classification": "Apartamento Duplex | 84,37m²",
        "link": "https://www.zukerman.com.br/apartamento-duplex-vila-suzana-sao-paulo-sp-17718-138370",
        "latitude": "-23.6199099",
        "longitude": "-46.7413843",
        "zipcode": "\"05709-050\""
    },
    {
        "address": " Rua Doutor Djalma Pinheiro Franco, 30 ",
        "price1": " R$ 504.058,62 ",
        "price2": " R$ 302.435,17 ",
        "classification": "Apartamento | 82,96m²",
        "link": "https://www.zukerman.com.br/apartamento-vila-santa-catarina-sao-paulo-sp-17810-138780",
        "latitude": "-23.6484321",
        "longitude": "-46.6629572",
        "zipcode": "\"04370\""
    },
    {
        "address": " Rua Marcus Pereira, 37 ",
        "price1": " R$ 628.863,32 ",
        "price2": "",
        "classification": "Apartamento | 246,50m²",
        "link": "https://www.zukerman.com.br/apartamento-vila-suzana-sao-paulo-sp-17644-137844",
        "latitude": "-23.623664",
        "longitude": "-46.7356817",
        "zipcode": "\"05642-020\""
    },
    {
        "address": " Rua Domingos Lopes da Silva, 1042 ",
        "price1": " R$ 500.000,00 ",
        "price2": "",
        "classification": "Apartamento",
        "link": "https://www.zukerman.com.br/apartamento-vila-suzana-sao-paulo-sp-17875-139063",
        "latitude": "-23.6197226",
        "longitude": "-46.7401683",
        "zipcode": "\"05641-030\""
    },
    {
        "address": " Rua Correggio, 251 ",
        "price1": " R$ 524.858,47 ",
        "price2": " R$ 262.429,23 ",
        "classification": "Apartamento | 120,96m²",
        "link": "https://www.zukerman.com.br/apartamento-vila-suzana-sao-paulo-sp-17819-138795",
        "latitude": "-23.6099564",
        "longitude": "-46.732218",
        "zipcode": "\"05661\""
    }
]